{
    "trashCollectionSites":[
        {"address":{"zip":"05773","notes":"","city":"Wallingford","street":"99 Waldo Lane","state":"VT","street2":""},"notes":"Notes for this location.","created":"1970-01-01T00:00:00.000Z","start":"1970-01-01T00:00:00.000Z","name":"Wallingford Transfer Station","coordinates":{"latitude":43.4704907,"longitude":-72.9824021},"active":true,"end":"1970-01-01T00:00:00.000Z","townId":"WALLINGFORD","updated":"Fri May 08 2020 18:21:53 GMT+0000 (Coordinated Universal Time)"}
        ,{"address":{"zip":"05440","notes":"","city":"Alburg","street":"1 N Main St","street2":"","state":"VT"},"created":"1970-01-01T00:00:00.000Z","coordinates":{"latitude":44.9770251,"longitude":-73.300195},"start":"1970-01-01T00:00:00.000Z","name":"Town Clerk\u0027s Office","active":true,"end":"1970-01-01T00:00:00.000Z","townId":"ALBURGH"}
        ,{"address":{"zip":"05091","notes":"","city":"Woodstock","street":"463 Route 4","street2":"","state":"VT"},"created":"1970-01-01T00:00:00.000Z","start":"1970-01-01T00:00:00.000Z","coordinates":{"latitude":43.545761,"longitude":-72.576499},"name":"West Woodstock Town Garage","active":true,"end":"1970-01-01T00:00:00.000Z","townId":"WOODSTOCK"}
        ,{"address":{"zip":"05907","notes":"","city":"Norton","street":"249 VT Route 114 South","state":"VT","street2":""},"created":"1970-01-01T00:00:00.000Z","coordinates":{"latitude":45.005775,"longitude":-71.79789},"name":"Norton Recycling Center","start":"1970-01-01T00:00:00.000Z","active":true,"end":"1970-01-01T00:00:00.000Z","townId":"NORTON"}
        ,{"address":{"zip":"05477","notes":"","city":"Richmond","street":"276 Thompson Rd","street2":"","state":"VT"},"created":"1970-01-01T00:00:00.000Z","start":"1970-01-01T00:00:00.000Z","name":"Town Garage","coordinates":{"latitude":44.3957059,"longitude":-73.0055127},"active":true,"end":"1970-01-01T00:00:00.000Z","townId":"RICHMOND"}
        ,{"address":{"zip":"05403","notes":"","city":"S. Burlington","street":"575 Dorset St.","street2":"","state":"VT"},"created":"1970-01-01T00:00:00.000Z","start":"1970-01-01T00:00:00.000Z","coordinates":{"latitude":44.45433999999999,"longitude":-73.1796},"name":"South Burlington City Hall","active":true,"end":"1970-01-01T00:00:00.000Z","townId":"SOUTH_BURLINGTON"}
        ,{"address":{"zip":"05734","notes":"","city":"Bridport","street":"82 Crown Point Rd","state":"VT","street2":""},"created":"1970-01-01T00:00:00.000Z","name":"Town Clerk\u0027s Office","start":"1970-01-01T00:00:00.000Z","coordinates":{"latitude":43.984423,"longitude":-73.31526699999999},"active":true,"end":"1970-01-01T00:00:00.000Z","townId":"BRIDPORT"}
        ,{"address":{"zip":"05143","notes":"","city":"Chester","street":"953 Andover Rd.","street2":"","state":"VT"},"created":"1970-01-01T00:00:00.000Z","coordinates":{"latitude":43.2714471,"longitude":-72.6734994},"start":"1970-01-01T00:00:00.000Z","name":"Andover Town Garage","active":true,"end":"1970-01-01T00:00:00.000Z","townId":"ANDOVER"}
        ,{"address":{"zip":"05848","notes":"","city":"Waterford","street":"532 Maple St","state":"VT","street2":""},"created":"1970-01-01T00:00:00.000Z","coordinates":{"latitude":44.3543917,"longitude":-71.9077404},"name":"Transfer Station","start":"1970-01-01T00:00:00.000Z","active":true,"end":"1970-01-01T00:00:00.000Z","townId":"WATERFORD"}
        ,{"address":{"zip":"05465","notes":"","city":"Jericho","street":"510 Brown\u0027s Trace Rd.","street2":"","state":"VT"},"notes":"","created":"1970-01-01T00:00:00.000Z","coordinates":{"latitude":44.4544823,"longitude":-72.97048529999999},"name":"Jericho Town Garage","start":"1970-01-01T00:00:00.000Z","active":true,"end":"1970-01-01T00:00:00.000Z","townId":"JERICHO","updated":"Sun Apr 25 2021 21:51:31 GMT+0000 (Coordinated Universal Time)"}
        ,{"address":{"zip":"05046","notes":"","city":"Groton","street":"1476 Scott Highway","street2":"","state":"VT"},"created":"1970-01-01T00:00:00.000Z","coordinates":{"latitude":44.2115517,"longitude":-72.1973407},"name":"Groton Town Office","start":"1970-01-01T00:00:00.000Z","active":true,"end":"1970-01-01T00:00:00.000Z","townId":"GROTON"}
        ,{"address":{"zip":"05820","notes":"","city":"Albany","street":"569 Delano Rd.","street2":"","state":"VT"},"created":"1970-01-01T00:00:00.000Z","start":"1970-01-01T00:00:00.000Z","name":"Albany Town Garage","coordinates":{"latitude":44.7580711,"longitude":-72.3284556},"active":true,"end":"1970-01-01T00:00:00.000Z","townId":"ALBANY"}
        ,{"address":{"zip":"05651","notes":"","city":"E. Montpelier","street":"665 Vincent Flats Rd","street2":"","state":"VT"},"created":"1970-01-01T00:00:00.000Z","coordinates":{"latitude":44.28661710000001,"longitude":-72.4953304},"start":"1970-01-01T00:00:00.000Z","name":"East Montpelier Elementary","active":true,"end":"1970-01-01T00:00:00.000Z","townId":"EAST_MONTPELIER"}
        ,{"address":{"zip":"05143","notes":"","city":"Chester","street":"44 Town Garage Rd.","street2":"","state":"VT"},"created":"1970-01-01T00:00:00.000Z","start":"1970-01-01T00:00:00.000Z","name":"Chester Town Garage","coordinates":{"latitude":43.2662607,"longitude":-72.5889925},"active":true,"end":"1970-01-01T00:00:00.000Z","townId":"CHESTER"}
        ,{"notes":"","address":{"zip":"","notes":"","city":"","street":"","street2":"","state":""},"created":"Mon Apr 26 2021 16:52:03 GMT+0000 (Coordinated Universal Time)","coordinates":{},"name":"Turn-off on River Road, North Duxbury","active":true,"townId":"DUXBURY","updated":"Mon Apr 26 2021 16:52:03 GMT+0000 (Coordinated Universal Time)"}
        ,{"address":{"zip":"05491","notes":"","city":"Panton","street":"2163 Panton Rd","state":"VT","street2":""},"created":"1970-01-01T00:00:00.000Z","coordinates":{"latitude":44.154015,"longitude":-73.300133},"name":"Town Garage","start":"1970-01-01T00:00:00.000Z","active":true,"end":"1970-01-01T00:00:00.000Z","townId":"PANTON"}
        ,{"address":{"zip":"05151","notes":"","city":"Perkinsville","street":"5024 VT Route 106","street2":"","state":"VT"},"created":"1970-01-01T00:00:00.000Z","coordinates":{"latitude":43.410191,"longitude":-72.5136179},"start":"1970-01-01T00:00:00.000Z","name":"Weathersfield Transfer Station","active":true,"end":"1970-01-01T00:00:00.000Z","townId":"WEST_WINDSOR"}
        ,{"notes":"Drop off at the Town Garage on Creamery Road on Green Up Day from 9am - 1pm.","address":{"zip":"05843","notes":"","city":"Hardwick","street":"Creamery Rd","street2":"","state":"VT"},"created":"1970-01-01T00:00:00.000Z","coordinates":{"latitude":44.5057356,"longitude":-72.3646613},"name":"Town Garage","start":"1970-01-01T00:00:00.000Z","active":true,"end":"1970-01-01T00:00:00.000Z","townId":"HARDWICK","updated":"Tue Apr 27 2021 21:23:52 GMT+0000 (Coordinated Universal Time)"}
        ,{"address":{"zip":"05036","notes":"","city":"Brookfield","street":"40-74 VT Route 65","street2":"","state":"VT"},"created":"1970-01-01T00:00:00.000Z","name":"Brookfield Town Garage","start":"1970-01-01T00:00:00.000Z","coordinates":{"latitude":44.0304891,"longitude":-72.5841694},"active":true,"end":"1970-01-01T00:00:00.000Z","townId":"BROOKFIELD"}
        ,{"address":{"zip":"05452","notes":"","city":"Essex Junction","street":"188 Sand Hill Rd","street2":"","state":"VT"},"created":"1970-01-01T00:00:00.000Z","coordinates":{"latitude":44.504877,"longitude":-73.0549167},"name":"Highway Garage","start":"1970-01-01T00:00:00.000Z","active":true,"end":"1970-01-01T00:00:00.000Z","townId":"ESSEX"}
        ,{"notes":" ","address":{"zip":"05676","notes":"","city":"Bolton","street":"3530 Theodore Roosevelt Hwy","street2":"","state":"VT"},"created":"Tue Apr 27 2021 21:26:37 GMT+0000 (Coordinated Universal Time)","name":"Town Garage","coordinates":{},"active":true,"townId":"BOLTON","updated":"Tue Apr 27 2021 21:26:37 GMT+0000 (Coordinated Universal Time)"}
        ,{"address":{"zip":"05859","notes":"","city":"Jay","street":"1036 VT-242","state":"VT","street2":""},"created":"1970-01-01T00:00:00.000Z","start":"1970-01-01T00:00:00.000Z","name":"Town Hall","coordinates":{"latitude":44.9472848,"longitude":-72.4411758},"active":true,"end":"1970-01-01T00:00:00.000Z","townId":"JAY"}
        ,{"address":{"zip":"05681","notes":"","city":"Woodbury","street":"63 Valley Lake Rd.","state":"VT","street2":""},"created":"1970-01-01T00:00:00.000Z","name":"Woodbury Elementary","coordinates":{"latitude":44.44003499999999,"longitude":-72.416224},"start":"1970-01-01T00:00:00.000Z","active":true,"end":"1970-01-01T00:00:00.000Z","townId":"WOODBURY"}
        ,{"address":{"zip":"05840","notes":"","city":"Granby","street":"9005 Granby Rd.","state":"VT","street2":""},"created":"1970-01-01T00:00:00.000Z","start":"1970-01-01T00:00:00.000Z","coordinates":{"latitude":44.5699963,"longitude":-71.75835479999999},"name":"Granby Town Office","active":true,"end":"1970-01-01T00:00:00.000Z","townId":"GRANBY"}
        ,{"address":{"zip":"05667","notes":"","city":"Plainfield","street":"99 Cameron Rd.","state":"VT","street2":""},"created":"1970-01-01T00:00:00.000Z","coordinates":{"latitude":44.26609759999999,"longitude":-72.4096562},"start":"1970-01-01T00:00:00.000Z","name":"Plainfield Town Garage","active":true,"end":"1970-01-01T00:00:00.000Z","townId":"PLAINFIELD"}
        ,{"address":{"zip":"","notes":"","city":"Berlin","street":"142 Berlin Mall Road","street2":"","state":"VT"},"created":"1970-01-01T00:00:00.000Z","coordinates":{"latitude":44.2193926,"longitude":-72.5668367},"name":"Twin City Subaru","start":"1970-01-01T00:00:00.000Z","active":true,"end":"1970-01-01T00:00:00.000Z","townId":"BERLIN"}
        ,{"address":{"zip":"05602","notes":"","city":"Middlesex","street":"Shady Rill Rd.","street2":"","state":"VT"},"created":"1970-01-01T00:00:00.000Z","start":"1970-01-01T00:00:00.000Z","coordinates":{"latitude":44.3428577,"longitude":-72.58830069999999},"name":"Middlesex Town Garage","active":true,"end":"1970-01-01T00:00:00.000Z","townId":"MIDDLESEX"}
        ,{"address":{"zip":"","notes":"","city":"","street":"Leaves on roadsides.","state":"VT","street2":""},"created":"1970-01-01T00:00:00.000Z","start":"1970-01-01T00:00:00.000Z","coordinates":{},"name":"","active":true,"end":"1970-01-01T00:00:00.000Z","townId":"KIRBY"}
        ,{"address":{"zip":"05483","notes":"","city":"Sheldon","street":"649 Bridge St","street2":"","state":"VT"},"notes":"Bring full bags to the Town Garage.","created":"1970-01-01T00:00:00.000Z","coordinates":{"latitude":44.8820943,"longitude":-72.9377616},"name":"Town Garage","start":"1970-01-01T00:00:00.000Z","active":true,"end":"1970-01-01T00:00:00.000Z","townId":"SHELDON","updated":"Tue Apr 27 2021 23:36:59 GMT+0000 (Coordinated Universal Time)"}
        ,{"address":{"zip":"","notes":"","city":"","street":"","street2":"","state":""},"created":"2019-11-21T19:08:10.000Z","coordinates":{},"start":"2019-11-21T19:08:10.000Z","name":"The Library","active":true,"end":"2019-11-21T19:08:10.000Z","townId":"FAIRFIELD"}
        ,{"address":{"zip":"","notes":"","city":"VT 05753","street":"50 Franklin Street Middlebury College Middlebury","street2":"","state":"VT"},"created":"1970-01-01T00:00:00.000Z","start":"1970-01-01T00:00:00.000Z","name":"Park across from Twilight Hall","coordinates":{"latitude":44.00825950000001,"longitude":-73.1773152},"active":true,"end":"1970-01-01T00:00:00.000Z","townId":"MIDDLEBURY"}
        ,{"address":{"zip":"05051","notes":"","city":"Newbury","street":"Main St (at Pulaski St)","street2":"","state":"VT"},"created":"1970-01-01T00:00:00.000Z","coordinates":{"latitude":44.0781576,"longitude":-72.0585068},"start":"1970-01-01T00:00:00.000Z","name":"Newbury Common","active":true,"end":"1970-01-01T00:00:00.000Z","townId":"NEWBURY"}
        ,{"address":{"zip":"05650","notes":"","city":"E. Calais","street":"123-653 Moscow Woods Rd.","state":"VT","street2":""},"created":"1970-01-01T00:00:00.000Z","name":"Calais Transfer Station","coordinates":{"latitude":44.3684908,"longitude":-72.43823429999999},"start":"1970-01-01T00:00:00.000Z","active":true,"end":"1970-01-01T00:00:00.000Z","townId":"CALAIS"}
        ,{"notes":"Dumpsters: will be available at the following locations:\nHartford Town Hall: Wednesday, April 28th – Monday, May 3rd.\nQuechee Green: Wednesday, April 28th – Monday, May 3rd.\nWhite River Subaru: Friday, April 30th – Monday, May 3rd.\nDrop-off of Green-Up trash at the Hartford Solid Waste Facility will not be available this year.","address":{"zip":"05001","notes":"","city":"White River Jct.","street":"429 Sykes Mountain Ave","street2":"","state":"VT"},"created":"1970-01-01T00:00:00.000Z","name":"White River Suburu","coordinates":{"latitude":43.6435827,"longitude":-72.3309285},"start":"1970-01-01T00:00:00.000Z","active":true,"end":"1970-01-01T00:00:00.000Z","townId":"HARTFORD","updated":"Thu Apr 29 2021 18:12:58 GMT+0000 (Coordinated Universal Time)"}
        ,{"address":{"zip":"05053","notes":"","city":"N. Pomfret","street":"100 LaBounty Rd.","state":"VT","street2":""},"notes":"No roadside pick up! Bring all materials to the Town Garage by Sunday afternoon. Household trash and tires will NOT be accepted.","created":"1970-01-01T00:00:00.000Z","coordinates":{"latitude":43.6979284,"longitude":-72.52079789999999},"name":"Pomfret Town Garage","start":"1970-01-01T00:00:00.000Z","active":true,"end":"1970-01-01T00:00:00.000Z","townId":"POMFRET","updated":"Mon Apr 26 2021 16:56:52 GMT+0000 (Coordinated Universal Time)"}
        ,{"address":{"zip":"05862","notes":"","city":"Peacham","street":"340 Bayley-Hazen Rd.","street2":"","state":"VT"},"created":"1970-01-01T00:00:00.000Z","coordinates":{"latitude":44.3257535,"longitude":-72.1671083},"start":"1970-01-01T00:00:00.000Z","name":"Peacham Elementary","active":true,"end":"1970-01-01T00:00:00.000Z","townId":"PEACHAM"}
        ,{"address":{"zip":"05738","notes":"","city":"Shrewbury","street":"130 Mountain School Rd.","state":"VT","street2":""},"created":"1970-01-01T00:00:00.000Z","coordinates":{"latitude":43.525455,"longitude":-72.832939},"start":"1970-01-01T00:00:00.000Z","name":"Northam Trasfer Station","active":true,"end":"1970-01-01T00:00:00.000Z","townId":"SHREWSBURY"}
        ,{"address":{"zip":"05733","notes":"","city":"Sudbury","street":"12 Williams Lane","state":"VT","street2":""},"created":"1970-01-01T00:00:00.000Z","coordinates":{"latitude":43.8214253,"longitude":-73.17345809999999},"name":"Sudbury Recycling Center","start":"1970-01-01T00:00:00.000Z","active":true,"end":"1970-01-01T00:00:00.000Z","townId":"SUDBURY"}
        ,{"address":{"zip":"05673","notes":"","city":"Waitsfield","street":"6911 Main St.","state":"VT","street2":""},"created":"1970-01-01T00:00:00.000Z","start":"1970-01-01T00:00:00.000Z","name":"Earthwise Transfer Station","coordinates":{"latitude":44.160995,"longitude":-72.832504},"active":true,"end":"1970-01-01T00:00:00.000Z","townId":"WARREN"}
        ,{"address":{"zip":"05250","notes":"","city":"Sunderland","street":"3039 Sunderland Hill Rd","street2":"","state":"VT"},"created":"1970-01-01T00:00:00.000Z","name":"Town Garage","coordinates":{"latitude":43.10836399999999,"longitude":-73.119415},"start":"1970-01-01T00:00:00.000Z","active":true,"end":"1970-01-01T00:00:00.000Z","townId":"SUNDERLAND"}
        ,{"address":{"zip":"","notes":"","city":"","street":"Leave on major roadsides at intersections.","street2":"","state":"VT"},"created":"1970-01-01T00:00:00.000Z","name":"","coordinates":{},"start":"1970-01-01T00:00:00.000Z","active":true,"end":"1970-01-01T00:00:00.000Z","townId":"BURLINGTON"}
        ,{"address":{"zip":"05757","notes":"","city":"Middletown Springs","street":"8 Firehouse Lane","street2":"","state":"VT"},"created":"1970-01-01T00:00:00.000Z","start":"1970-01-01T00:00:00.000Z","coordinates":{},"name":"Transfer Station","active":true,"end":"1970-01-01T00:00:00.000Z","townId":"MIDDLETOWN_SPRINGS"}
        ,{"address":{"zip":"05445","notes":"","city":"Fairfield","street":"12 Gilbert Hill","state":"VT","street2":""},"created":"1970-01-01T00:00:00.000Z","coordinates":{"latitude":44.802999,"longitude":-72.93741899999999},"name":"Fairfield Town Garage","start":"1970-01-01T00:00:00.000Z","active":true,"end":"1970-01-01T00:00:00.000Z","townId":"FAIRFIELD"}
        ,{"address":{"zip":"05846","notes":"","city":"Island Pond","street":"49 Mill St","street2":"","state":"VT"},"notes":"Bring full bags to the dumpster behind town hall, do not leave on roadsides.","created":"1970-01-01T00:00:00.000Z","coordinates":{"latitude":44.8149629,"longitude":-71.8820039},"start":"1970-01-01T00:00:00.000Z","name":"Town Hall","active":true,"end":"1970-01-01T00:00:00.000Z","townId":"BRIGHTON","updated":"Tue Apr 27 2021 23:47:10 GMT+0000 (Coordinated Universal Time)"}
        ,{"address":{"zip":"05491","notes":"","city":"Addison","street":"4970 VT 22A","street2":"","state":"VT"},"notes":"Trash Notes: Call Starr to pick up bags, call beforehand. ","created":"1970-01-01T00:00:00.000Z","name":"Addison Baptist Church","coordinates":{"latitude":44.0886671,"longitude":-73.3028997},"active":true,"townId":"ADDISON","updated":"Wed May 13 2020 14:01:30 GMT+0000 (Coordinated Universal Time)"}
        ,{"address":{"zip":"05825","notes":"","city":"Coventry","street":"403 Landfill Lane","street2":"","state":"VT"},"created":"1970-01-01T00:00:00.000Z","name":"Coventry Landfill","coordinates":{"latitude":44.91093799999999,"longitude":-72.223486},"start":"1970-01-01T00:00:00.000Z","active":true,"end":"1970-01-01T00:00:00.000Z","townId":"COVENTRY"}
        ,{"address":{"zip":"","notes":"","city":"","street":"","street2":"","state":"VT"},"created":"1970-01-01T00:00:00.000Z","start":"1970-01-01T00:00:00.000Z","coordinates":{},"name":"","active":true,"end":"1970-01-01T00:00:00.000Z","townId":"ENOSBURG"}
        ,{"address":{"zip":"05353","notes":"","city":"Tonwshend","street":"93-1 Common Rd.","state":"VT","street2":""},"created":"1970-01-01T00:00:00.000Z","name":"Townshend Common","coordinates":{"latitude":43.0469236,"longitude":-72.668295},"start":"1970-01-01T00:00:00.000Z","active":true,"end":"1970-01-01T00:00:00.000Z","townId":"TOWNSHEND"}
        ,{"address":{"zip":"05672","notes":"","city":"Stowe","street":"140 Cottage Club Rd.","street2":"","state":"VT"},"created":"1970-01-01T00:00:00.000Z","coordinates":{"latitude":44.4771459,"longitude":-72.715366},"name":"Sunset Grille","start":"1970-01-01T00:00:00.000Z","active":true,"end":"1970-01-01T00:00:00.000Z","townId":"STOWE"}
        ,{"address":{"zip":"","notes":"","city":"VT 05743","street":"Fair Haven","street2":"","state":"VT"},"created":"1970-01-01T00:00:00.000Z","start":"1970-01-01T00:00:00.000Z","name":"Village Green","coordinates":{"latitude":43.593757,"longitude":-73.266501},"active":true,"end":"1970-01-01T00:00:00.000Z","townId":"FAIR_HAVEN"}
        ,{"address":{"zip":"05031","notes":"","city":"Barnard","street":"6231 Vermont 12","state":"VT","street2":""},"created":"1970-01-01T00:00:00.000Z","coordinates":{"latitude":43.7290293,"longitude":-72.6204712},"start":"1970-01-01T00:00:00.000Z","name":"Barnard General Store","active":true,"end":"1970-01-01T00:00:00.000Z","townId":"BARNARD"}
        ,{"address":{"zip":"","notes":"","city":"","street":"Leave on roadsides at intersections","street2":"","state":"VT"},"created":"1970-01-01T00:00:00.000Z","coordinates":{},"start":"1970-01-01T00:00:00.000Z","name":"","active":true,"end":"1970-01-01T00:00:00.000Z","townId":"MENDON"}
        ,{"address":{"zip":"05075","notes":"","city":"Thetford","street":"3901 VT Route 113","street2":"","state":"VT"},"created":"1970-01-01T00:00:00.000Z","name":"Thetford Town Garage","start":"1970-01-01T00:00:00.000Z","coordinates":{"latitude":43.8313419,"longitude":-72.2475901},"active":true,"end":"1970-01-01T00:00:00.000Z","townId":"THETFORD"}
        ,{"address":{"zip":"05101","notes":"","city":"Bellows Falls","street":"19 Blake St","street2":"","state":"VT"},"created":"1970-01-01T00:00:00.000Z","name":"Town Garage","start":"1970-01-01T00:00:00.000Z","coordinates":{"latitude":43.129891,"longitude":-72.453546},"active":true,"end":"1970-01-01T00:00:00.000Z","townId":"ROCKINGHAM"}
        ,{"address":{"zip":"05151","notes":"","city":"Perkinsville","street":"5024 VT Route 106","street2":"","state":"VT"},"created":"1970-01-01T00:00:00.000Z","name":"Weathersfield Transfer Station","coordinates":{"latitude":43.410191,"longitude":-72.5136179},"start":"1970-01-01T00:00:00.000Z","active":true,"end":"1970-01-01T00:00:00.000Z","townId":"READING"}
        ,{"address":{"zip":"05443","notes":"","city":"Lincoln","street":"34 Gove Hill Rd","state":"VT","street2":""},"created":"1970-01-01T00:00:00.000Z","start":"1970-01-01T00:00:00.000Z","name":"Lincoln Fire Dept","coordinates":{"latitude":44.1052136,"longitude":-72.9970561},"active":true,"end":"1970-01-01T00:00:00.000Z","townId":"LINCOLN"}
        ,{"address":{"zip":"05872","notes":"","city":"Charleston","street":"5063 VT Route 105","state":"VT","street2":""},"created":"1970-01-01T00:00:00.000Z","coordinates":{"latitude":44.8505219,"longitude":-72.0254412},"name":"Charleston Town Office","start":"1970-01-01T00:00:00.000Z","active":true,"end":"1970-01-01T00:00:00.000Z","townId":"CHARLESTON"}
        ,{"address":{"zip":"05034","notes":"","city":"Bridgewater Corners","street":"65 Schoolhouse Rd","street2":"","state":"VT"},"created":"1970-01-01T00:00:00.000Z","start":"1970-01-01T00:00:00.000Z","coordinates":{"latitude":43.5868107,"longitude":-72.65821679999999},"name":"","active":true,"end":"1970-01-01T00:00:00.000Z","townId":"BRIDGEWATER"}
        ,{"address":{"zip":"05033","notes":"","city":"Bradford","street":"359 Fairground Rd","state":"VT","street2":""},"created":"1970-01-01T00:00:00.000Z","name":"Bradford Town Garage","coordinates":{"latitude":44.0055979,"longitude":-72.12135959999999},"start":"1970-01-01T00:00:00.000Z","active":true,"end":"1970-01-01T00:00:00.000Z","townId":"BRADFORD"}
        ,{"address":{"zip":"05867","notes":"","city":"Sutton","street":"691 Burke Rd","street2":"","state":"VT"},"created":"1970-01-01T00:00:00.000Z","start":"1970-01-01T00:00:00.000Z","name":"Fire Station","coordinates":{"latitude":44.6315488,"longitude":-72.01243219999999},"active":true,"end":"1970-01-01T00:00:00.000Z","townId":"SUTTON"}
        ,{"address":{"zip":"05352","notes":"","city":"Stamford","street":"986 Main Rd","state":"VT","street2":""},"created":"1970-01-01T00:00:00.000Z","name":"Stamford Recycling Center","start":"1970-01-01T00:00:00.000Z","coordinates":{"latitude":42.7548249,"longitude":-73.06741099999999},"active":true,"end":"1970-01-01T00:00:00.000Z","townId":"STAMFORD"}
        ,{"address":{"zip":"05042","notes":"","city":"Ryegate","street":"32 Witherspoon Rd.","state":"VT","street2":""},"created":"1970-01-01T00:00:00.000Z","start":"1970-01-01T00:00:00.000Z","name":"Ryegate Town Garage","coordinates":{"latitude":44.2086056,"longitude":-72.10432039999999},"active":true,"end":"1970-01-01T00:00:00.000Z","townId":"RYEGATE"}
        ,{"address":{"zip":"05356","notes":"","city":"West Dover","street":"11 Landfill Rd","street2":"","state":"VT"},"created":"1970-01-01T00:00:00.000Z","name":"Transfer Station","coordinates":{"latitude":42.9303062,"longitude":-72.8198858},"start":"1970-01-01T00:00:00.000Z","active":true,"end":"1970-01-01T00:00:00.000Z","townId":"DOVER"}
        ,{"address":{"zip":"05491","notes":"","city":"Vergennes","street":"2053 Maple St","street2":"","state":"VT"},"created":"1970-01-01T00:00:00.000Z","name":"Town Hall","coordinates":{"latitude":44.130825,"longitude":-73.24468999999999},"start":"1970-01-01T00:00:00.000Z","active":true,"end":"1970-01-01T00:00:00.000Z","townId":"WALTHAM"}
        ,{"address":{"zip":"05905","notes":"","city":"Guildhall","street":"13 Courthouse Dr.","state":"VT","street2":""},"created":"1970-01-01T00:00:00.000Z","name":"Guildhall Town Office","coordinates":{"latitude":44.5650017,"longitude":-71.56205},"start":"1970-01-01T00:00:00.000Z","active":true,"end":"1970-01-01T00:00:00.000Z","townId":"GUILDHALL"}
        ,{"address":{"zip":"05759","notes":"","city":"North Clarendon","street":"279 Middle Rd","state":"VT","street2":""},"created":"1970-01-01T00:00:00.000Z","name":"Town Hall","start":"1970-01-01T00:00:00.000Z","coordinates":{"latitude":43.5204625,"longitude":-72.9719633},"active":true,"end":"1970-01-01T00:00:00.000Z","townId":"CLARENDON"}
        ,{"address":{"zip":"05146","notes":"","city":"Grafton","street":"778 VT-121","street2":"","state":"VT"},"created":"1970-01-01T00:00:00.000Z","name":"Town Garage","start":"1970-01-01T00:00:00.000Z","coordinates":{"latitude":43.17429000000001,"longitude":-72.594803},"active":true,"end":"1970-01-01T00:00:00.000Z","townId":"GRAFTON"}
        ,{"address":{"zip":"05851","notes":"","city":"Lyndonville","street":"224 Church St","street2":"","state":"VT"},"created":"1970-01-01T00:00:00.000Z","start":"1970-01-01T00:00:00.000Z","name":"Northeast Kingdom Waste Management District","coordinates":{"latitude":44.5380731,"longitude":-72.0035265},"active":true,"end":"1970-01-01T00:00:00.000Z","townId":"LYNDON"}
        ,{"notes":"Return full bags and collected items to Gardner Memorial Park, next to Skate Shack building when finished Greening-up. Look for signs and a dumpster. ","address":{"zip":"05855","notes":"","city":"Newport","street":"155 Gardner Park Rd","street2":"","state":"VT"},"created":"1970-01-01T00:00:00.000Z","name":"Gardner Memorial Park","start":"1970-01-01T00:00:00.000Z","coordinates":{"latitude":44.93890750000001,"longitude":-72.2025829},"active":true,"end":"1970-01-01T00:00:00.000Z","townId":"NEWPORT_CITY","updated":"Mon Apr 26 2021 17:56:14 GMT+0000 (Coordinated Universal Time)"}
        ,{"address":{"zip":"05031","notes":"","city":"Barnard","street":"157 Chateauguay Rd.","state":"VT","street2":""},"created":"1970-01-01T00:00:00.000Z","name":"Barnard Recycling Center","start":"1970-01-01T00:00:00.000Z","coordinates":{"latitude":43.755531,"longitude":-72.63589499999999},"active":true,"end":"1970-01-01T00:00:00.000Z","townId":"BARNARD"}
        ,{"address":{"zip":"05445","notes":"","city":"Charlotte","street":"408 Hinesburg Rd.","street2":"","state":"VT"},"created":"1970-01-01T00:00:00.000Z","name":"Charlotte Central School","start":"1970-01-01T00:00:00.000Z","coordinates":{"latitude":44.31517119999999,"longitude":-73.22640659999999},"active":true,"end":"1970-01-01T00:00:00.000Z","townId":"CHARLOTTE"}
        ,{"address":{"zip":"05676","notes":"","city":"Duxbury","street":"5421 VT Route 100","street2":"","state":"VT"},"created":"1970-01-01T00:00:00.000Z","coordinates":{"latitude":44.3196029,"longitude":-72.7598694},"name":"Duxbury Town Garage","start":"1970-01-01T00:00:00.000Z","active":true,"end":"1970-01-01T00:00:00.000Z","townId":"DUXBURY"}
        ,{"address":{"zip":"05763","notes":"","city":"Pittsford","street":"426 Plains Rd.","state":"VT","street2":""},"created":"1970-01-01T00:00:00.000Z","name":"Pittsford Town Office","coordinates":{"latitude":43.715443,"longitude":-73.028183},"start":"1970-01-01T00:00:00.000Z","active":true,"end":"1970-01-01T00:00:00.000Z","townId":"PITTSFORD"}
        ,{"address":{"zip":"05658","notes":"","city":"Marshfield","street":"122 School St. #1","street2":"","state":"VT"},"created":"1970-01-01T00:00:00.000Z","start":"1970-01-01T00:00:00.000Z","name":"Marshfield Town Garage","coordinates":{"latitude":44.349356,"longitude":-72.355082},"active":true,"end":"1970-01-01T00:00:00.000Z","townId":"MARSHFIELD"}
        ,{"address":{"zip":"05345","notes":"","city":"Newfane","street":"174 S. Wardsboro Rd.","state":"VT","street2":""},"created":"1970-01-01T00:00:00.000Z","start":"1970-01-01T00:00:00.000Z","name":"Wardsboro Transfer Station","coordinates":{"latitude":43.0391697,"longitude":-72.7895758},"active":true,"end":"1970-01-01T00:00:00.000Z","townId":"WARDSBORO"}
        ,{"address":{"zip":"","notes":"","city":"","street":"","street2":"","state":"VT"},"created":"1970-01-01T00:00:00.000Z","start":"1970-01-01T00:00:00.000Z","name":"","coordinates":{},"active":true,"end":"1970-01-01T00:00:00.000Z","townId":"SHEFFIELD"}
        ,{"address":{"zip":"05468","notes":"","city":"Milton","street":"43 Bombardier Rd","street2":"","state":"VT"},"created":"1970-01-01T00:00:00.000Z","coordinates":{"latitude":44.619045,"longitude":-73.1261518},"start":"1970-01-01T00:00:00.000Z","name":"Town Garage","active":true,"end":"1970-01-01T00:00:00.000Z","townId":"MILTON"}
        ,{"address":{"zip":"05404","notes":"","city":"Winooski","street":"32 Malletts Bay Ave","street2":"","state":"VT"},"created":"1970-01-01T00:00:00.000Z","coordinates":{"latitude":44.498457,"longitude":-73.1910905},"start":"1970-01-01T00:00:00.000Z","name":"O\u0027Brien Community Center","active":true,"end":"1970-01-01T00:00:00.000Z","townId":"WINOOSKI"}
        ,{"address":{"zip":"05482","notes":"","city":"Shelburne","street":"154 Turtle Lane","state":"VT","street2":""},"created":"1970-01-01T00:00:00.000Z","name":"Town Dump Truck","start":"1970-01-01T00:00:00.000Z","coordinates":{"latitude":44.38468899999999,"longitude":-73.23599200000001},"active":true,"end":"1970-01-01T00:00:00.000Z","townId":"SHELBURNE"}
        ,{"address":{"zip":"05841","notes":"","city":"Greensboro","street":"81 Lauredon Ave","street2":"","state":"VT"},"created":"1970-01-01T00:00:00.000Z","start":"1970-01-01T00:00:00.000Z","name":"Recycling Center","coordinates":{"latitude":44.579344,"longitude":-72.2953272},"active":true,"end":"1970-01-01T00:00:00.000Z","townId":"GREENSBORO"}
        ,{"address":{"zip":"05076","notes":"","city":"Topsham","street":"2628 Goose Green Rd.","state":"VT","street2":""},"created":"1970-01-01T00:00:00.000Z","start":"1970-01-01T00:00:00.000Z","name":"Casella Transfer Station","coordinates":{},"active":true,"end":"1970-01-01T00:00:00.000Z","townId":"TOPSHAM"}
        ,{"address":{"zip":"05762","notes":"","city":"Pittsfield","street":"40 Village Green","street2":"","state":"VT"},"created":"1970-01-01T00:00:00.000Z","name":"Pittsfield Town Office","coordinates":{"latitude":43.7706423,"longitude":-72.812383},"start":"1970-01-01T00:00:00.000Z","active":true,"end":"1970-01-01T00:00:00.000Z","townId":"PITTSFIELD"}
        ,{"address":{"zip":"05772","notes":"","city":"Stockbridge","street":"2933 VT-107","street2":"","state":"VT"},"created":"1970-01-01T00:00:00.000Z","start":"1970-01-01T00:00:00.000Z","name":"Stockbridge Central School","coordinates":{"latitude":43.7650764,"longitude":-72.7126241},"active":true,"end":"1970-01-01T00:00:00.000Z","townId":"STOCKBRIDGE"}
        ,{"address":{"zip":"05358","notes":"","city":"West Halifax","street":"246 Branch Rd","street2":"","state":"VT"},"created":"1970-01-01T00:00:00.000Z","name":"Halifax West School","start":"1970-01-01T00:00:00.000Z","coordinates":{"latitude":42.784431,"longitude":-72.768503},"active":true,"end":"1970-01-01T00:00:00.000Z","townId":"HALIFAX"}
        ,{"address":{"zip":"05657","notes":"","city":"Elmore","street":"343 Beach Rd.","street2":"","state":"VT"},"created":"1970-01-01T00:00:00.000Z","name":"Elmore Town Garage","coordinates":{"latitude":44.5403375,"longitude":-72.5311737},"start":"1970-01-01T00:00:00.000Z","active":true,"end":"1970-01-01T00:00:00.000Z","townId":"ELMORE"}
        ,{"address":{"zip":"05469","notes":"","city":"Monkton","street":"4047 States Prison Rd","street2":"","state":"VT"},"created":"1970-01-01T00:00:00.000Z","coordinates":{"latitude":44.253113,"longitude":-73.119225},"start":"1970-01-01T00:00:00.000Z","name":"Monkton Highway Dept","active":true,"end":"1970-01-01T00:00:00.000Z","townId":"MONKTON"}
        ,{"address":{"zip":"05476","notes":"","city":"Richford","street":"236 S Main St","street2":"","state":"VT"},"created":"1970-01-01T00:00:00.000Z","start":"1970-01-01T00:00:00.000Z","coordinates":{"latitude":44.9886221,"longitude":-72.6826258},"name":"Town Garage","active":true,"end":"1970-01-01T00:00:00.000Z","townId":"RICHFORD"}
        ,{"address":{"zip":"05748","notes":"","city":"Hancock","street":"1091 Route 100","street2":"","state":"VT"},"created":"1970-01-01T00:00:00.000Z","coordinates":{"latitude":43.9247787,"longitude":-72.84061129999999},"name":"Hancock Town Hall","start":"1970-01-01T00:00:00.000Z","active":true,"end":"1970-01-01T00:00:00.000Z","townId":"HANCOCK"}
        ,{"address":{"zip":"05155","notes":"","city":"South Londondrry","street":"60 Main St.","state":"VT","street2":""},"created":"1970-01-01T00:00:00.000Z","name":"South Londonderry Fire Station","start":"1970-01-01T00:00:00.000Z","coordinates":{"latitude":43.1920058,"longitude":-72.8143673},"active":true,"end":"1970-01-01T00:00:00.000Z","townId":"LONDONDERRY"}
        ,{"notes":"Leave bags along roadsides, or bring to the Dan Foster House or take to the dump.","address":{"zip":"05151","notes":"","city":"Weathersfield","street":"2656 Weathersfield Center Rd","street2":"","state":"VT"},"created":"1970-01-01T00:00:00.000Z","coordinates":{"latitude":43.378994,"longitude":-72.46691899999999},"name":"Dan Foster House","start":"1970-01-01T00:00:00.000Z","active":true,"end":"1970-01-01T00:00:00.000Z","townId":"WEATHERSFIELD","updated":"Mon Apr 26 2021 20:25:26 GMT+0000 (Coordinated Universal Time)"}
        ,{"address":{"zip":"05048","notes":"","city":"Hartland","street":"57 VT Route 12","state":"VT","street2":""},"created":"1970-01-01T00:00:00.000Z","start":"1970-01-01T00:00:00.000Z","coordinates":{"latitude":43.5446859,"longitude":-72.4078021},"name":"Hartland Fire Station","active":true,"end":"1970-01-01T00:00:00.000Z","townId":"HARTLAND"}
        ,{"address":{"zip":"05452","notes":"","city":"Essex Junction","street":"1 VT-15","state":"VT","street2":""},"created":"1970-01-01T00:00:00.000Z","name":"Town Common","coordinates":{"latitude":44.5119307,"longitude":-73.0603663},"start":"1970-01-01T00:00:00.000Z","active":true,"end":"1970-01-01T00:00:00.000Z","townId":"ESSEX"}
        ,{"address":{"zip":"05874","notes":"","city":"Westfield","street":"757 VT-100","state":"VT","street2":""},"created":"1970-01-01T00:00:00.000Z","name":"Westfield Recycling Center","coordinates":{"latitude":44.892315,"longitude":-72.422104},"start":"1970-01-01T00:00:00.000Z","active":true,"end":"1970-01-01T00:00:00.000Z","townId":"WESTFIELD"}
        ,{"address":{"zip":"05343","notes":"","city":"Jamaica","street":"141 Castle Hill Rd","street2":"","state":"VT"},"created":"1970-01-01T00:00:00.000Z","start":"1970-01-01T00:00:00.000Z","name":"Transfer Station","coordinates":{"latitude":43.095016,"longitude":-72.785439},"active":true,"end":"1970-01-01T00:00:00.000Z","townId":"JAMAICA"}
        ,{"address":{"zip":"05056","notes":"","city":"Plymouth","street":"1515 Lynds Hill Rd.","street2":"","state":"VT"},"created":"1970-01-01T00:00:00.000Z","start":"1970-01-01T00:00:00.000Z","coordinates":{"latitude":43.520805,"longitude":-72.710846},"name":"Plymouth Transfer Station","active":true,"end":"1970-01-01T00:00:00.000Z","townId":"PLYMOUTH"}
        ,{"address":{"zip":"05764","notes":"","city":"Poultney","street":"611 Hillside Rd","street2":"","state":"VT"},"created":"1970-01-01T00:00:00.000Z","name":"Transfer Station","start":"1970-01-01T00:00:00.000Z","coordinates":{"latitude":43.536274,"longitude":-73.20518500000001},"active":true,"end":"1970-01-01T00:00:00.000Z","townId":"POULTNEY"}
        ,{"address":{"zip":"05456","notes":"","city":"Ferrisburg","street":"Th 33","street2":"","state":"VT"},"created":"1970-01-01T00:00:00.000Z","start":"1970-01-01T00:00:00.000Z","coordinates":{"latitude":44.2050042,"longitude":-73.2503356},"name":"Ferrisburgh Town Garage","active":true,"end":"1970-01-01T00:00:00.000Z","townId":"FERRISBURGH"}
        ,{"address":{"zip":"05143","notes":"","city":"Baltimore","street":"1902 Baltimore Rd","state":"VT","street2":""},"created":"1970-01-01T00:00:00.000Z","name":"Town Office","start":"1970-01-01T00:00:00.000Z","coordinates":{"latitude":43.3616726,"longitude":-72.57138139999999},"active":true,"end":"1970-01-01T00:00:00.000Z","townId":"BALTIMORE"}
        ,{"address":{"zip":"05045","notes":"","city":"Fairlee","street":"55 Town Common Rd","street2":"","state":"VT"},"created":"1970-01-01T00:00:00.000Z","name":"Fairlee Community Church","coordinates":{"latitude":43.9081789,"longitude":-72.142603},"start":"1970-01-01T00:00:00.000Z","active":true,"end":"1970-01-01T00:00:00.000Z","townId":"FAIRLEE"}
        ,{"address":{"zip":"05301","notes":"","city":"Guilford","street":"3940 Guilford Center Rd","state":"VT","street2":""},"created":"1970-01-01T00:00:00.000Z","name":"Broad Brook Grange","coordinates":{"latitude":42.79366599999999,"longitude":-72.624535},"start":"1970-01-01T00:00:00.000Z","active":true,"end":"1970-01-01T00:00:00.000Z","townId":"GUILFORD"}
        ,{"address":{"zip":"","notes":"","city":"","street":"Bring bags to Transfer station or leave on roadsides at intersections.","street2":"","state":"VT"},"created":"1970-01-01T00:00:00.000Z","start":"1970-01-01T00:00:00.000Z","coordinates":{},"name":"Transfer Station","active":true,"end":"1970-01-01T00:00:00.000Z","townId":"BRISTOL"}
        ,{"address":{"zip":"","notes":"","city":"","street":"Leave bags along roadsides.","state":"VT","street2":""},"created":"1970-01-01T00:00:00.000Z","name":"","start":"1970-01-01T00:00:00.000Z","coordinates":{},"active":true,"end":"1970-01-01T00:00:00.000Z","townId":"ESSEX_JCT"}
        ,{"address":{"zip":"05641","notes":"","city":"Orange","street":"144 Richardson Rd","street2":"","state":"VT"},"created":"1970-01-01T00:00:00.000Z","name":"Town Garage","coordinates":{"latitude":44.13881629999999,"longitude":-72.40663599999999},"start":"1970-01-01T00:00:00.000Z","active":true,"end":"1970-01-01T00:00:00.000Z","townId":"ORANGE"}
        ,{"address":{"zip":"05663","notes":"","city":"Northfield","street":"128 Wall St","street2":"","state":"VT"},"created":"1970-01-01T00:00:00.000Z","coordinates":{"latitude":44.148795,"longitude":-72.65877700000001},"name":"Firehouse","start":"1970-01-01T00:00:00.000Z","active":true,"end":"1970-01-01T00:00:00.000Z","townId":"NORTHFIELD"}
        ,{"address":{"zip":"05767","notes":"","city":"Rochester","street":"222 S. Main St.","street2":"","state":"VT"},"created":"1970-01-01T00:00:00.000Z","name":"Rochester Elementary","coordinates":{"latitude":43.872193,"longitude":-72.809173},"start":"1970-01-01T00:00:00.000Z","active":true,"end":"1970-01-01T00:00:00.000Z","townId":"ROCHESTER"}
        ,{"address":{"zip":"05065","notes":"","city":"Sharon","street":"VT-14","street2":"","state":"VT"},"created":"1970-01-01T00:00:00.000Z","coordinates":{"latitude":43.7530419,"longitude":-72.4492193},"name":"Town Garage","start":"1970-01-01T00:00:00.000Z","active":true,"end":"1970-01-01T00:00:00.000Z","townId":"SHARON"}
        ,{"address":{"zip":"","notes":"","city":"VT 05837","street":"634 Community Road\nEast Haven","state":"VT","street2":""},"created":"1970-01-01T00:00:00.000Z","coordinates":{"latitude":44.6400615,"longitude":-71.89147},"name":"Community Building","start":"1970-01-01T00:00:00.000Z","active":true,"end":"1970-01-01T00:00:00.000Z","townId":"EAST_HAVEN"}
        ,{"address":{"zip":"05773","notes":"","city":"Tinmouth","street":"537 Route 140","street2":"","state":"VT"},"created":"1970-01-01T00:00:00.000Z","coordinates":{"latitude":43.4485575,"longitude":-73.04800929999999},"name":"Tinmouth Transfer Station","start":"1970-01-01T00:00:00.000Z","active":true,"end":"1970-01-01T00:00:00.000Z","townId":"TINMOUTH"}
        ,{"address":{"zip":"05753","notes":"","city":"Middlebury","street":"1020 South Route 7","street2":"","state":"VT"},"created":"1970-01-01T00:00:00.000Z","start":"1970-01-01T00:00:00.000Z","name":"Middlebury Public Works Building","coordinates":{"latitude":44.0099621,"longitude":-73.1699551},"active":true,"end":"1970-01-01T00:00:00.000Z","townId":"MIDDLEBURY"}
        ,{"address":{"zip":"05262","notes":"","city":"Shaftsbury","street":"61 Buck Hill Rd","state":"VT","street2":""},"created":"1970-01-01T00:00:00.000Z","name":"Town Offices","start":"1970-01-01T00:00:00.000Z","coordinates":{"latitude":42.9465829,"longitude":-73.209824},"active":true,"end":"1970-01-01T00:00:00.000Z","townId":"SHAFTSBURY"}
        ,{"address":{"zip":"05457","notes":"","city":"Franklin","street":"5154 Main St","street2":"","state":"VT"},"created":"1970-01-01T00:00:00.000Z","start":"1970-01-01T00:00:00.000Z","name":"Fire Station","coordinates":{"latitude":44.98144,"longitude":-72.915128},"active":true,"end":"1970-01-01T00:00:00.000Z","townId":"FRANKLIN"}
        ,{"address":{"zip":"05161","notes":"","city":"Weston","street":"429 Lawrence Hill Rd.","state":"VT","street2":""},"created":"1970-01-01T00:00:00.000Z","start":"1970-01-01T00:00:00.000Z","name":"Weston Recreation Area","coordinates":{"latitude":43.3168762,"longitude":-72.7896107},"active":true,"end":"1970-01-01T00:00:00.000Z","townId":"WESTON"}
        ,{"address":{"zip":"05751","notes":"","city":"Killington","street":"2981 River Road","street2":"","state":"VT"},"created":"1970-01-01T00:00:00.000Z","name":"Transfer Station","start":"1970-01-01T00:00:00.000Z","coordinates":{"latitude":43.67223,"longitude":-72.775558},"active":true,"end":"1970-01-01T00:00:00.000Z","townId":"KILLINGTON"}
        ,{"address":{"zip":"","notes":"","city":"VT 05001","street":"171 Bridge Street White River Junction","street2":"","state":"VT"},"notes":"Dumpsters: will be available at the following locations:\nHartford Town Hall: Wednesday, April 28th – Monday, May 3rd.\nQuechee Green: Wednesday, April 28th – Monday, May 3rd.\nWhite River Subaru: Friday, April 30th – Monday, May 3rd.\nDrop-off of Green-Up trash at the Hartford Solid Waste Facility will not be available this year.","created":"1970-01-01T00:00:00.000Z","coordinates":{"latitude":43.6509268,"longitude":-72.3171613},"name":"Hartford Municipal Bldg.","start":"1970-01-01T00:00:00.000Z","active":true,"end":"1970-01-01T00:00:00.000Z","townId":"HARTFORD","updated":"Thu Apr 29 2021 18:12:52 GMT+0000 (Coordinated Universal Time)"}
        ,{"address":{"zip":"05032","notes":"","city":"Bethel","street":"318 Main St","state":"VT","street2":""},"notes":"Town Truck will be parked in the Municipal Parking Lot from 8-12 to drop off full bags, or can bring to the Transfer Station themselves.  ","created":"Mon Apr 26 2021 20:23:27 GMT+0000 (Coordinated Universal Time)","coordinates":{},"name":"Municipal Parking Lot","active":true,"townId":"BETHEL","updated":"Mon Apr 26 2021 20:23:54 GMT+0000 (Coordinated Universal Time)"}
        ,{"address":{"zip":"","notes":"","city":"VT 05768","street":"2673 VT Route 153 West Rupert","street2":"","state":"VT"},"created":"1970-01-01T00:00:00.000Z","start":"1970-01-01T00:00:00.000Z","name":"Fire Station","coordinates":{"latitude":43.22521870000001,"longitude":-73.2620707},"active":true,"end":"1970-01-01T00:00:00.000Z","townId":"RUPERT"}
        ,{"address":{"zip":"","notes":"","city":"VT 05842","street":"615 Stannard Mountain Road Stannard","street2":"","state":"VT"},"created":"1970-01-01T00:00:00.000Z","name":"Town Office","coordinates":{"latitude":44.542811,"longitude":-72.213075},"start":"1970-01-01T00:00:00.000Z","active":true,"end":"1970-01-01T00:00:00.000Z","townId":"STANNARD"}
        ,{"address":{"zip":"05647","notes":"","city":"Cabot VT","street":"2947 Main St.","state":"VT","street2":""},"created":"1970-01-01T00:00:00.000Z","coordinates":{"latitude":44.4012937,"longitude":-72.3134826},"start":"1970-01-01T00:00:00.000Z","name":"Cabot Fire Station ","active":true,"end":"1970-01-01T00:00:00.000Z","townId":"CABOT"}
        ,{"address":{"zip":"05461","notes":"","city":"Hinesburg","street":"907 Beecher Hill Rd","street2":"","state":"VT"},"created":"1970-01-01T00:00:00.000Z","start":"1970-01-01T00:00:00.000Z","coordinates":{"latitude":44.32071699999999,"longitude":-73.07511099999999},"name":"Town Garage","active":true,"end":"1970-01-01T00:00:00.000Z","townId":"HINESBURG"}
        ,{"address":{"zip":"05060","notes":"","city":"Braintree","street":"932 VT-12","street2":"","state":"VT"},"created":"1970-01-01T00:00:00.000Z","start":"1970-01-01T00:00:00.000Z","coordinates":{"latitude":43.9693985,"longitude":-72.7847972},"name":"Town Garage","active":true,"end":"1970-01-01T00:00:00.000Z","townId":"BRAINTREE"}
        ,{"address":{"zip":"05346","notes":"","city":"Putney","street":"127 Main St","state":"VT","street2":""},"created":"1970-01-01T00:00:00.000Z","coordinates":{"latitude":42.9746259,"longitude":-72.52210029999999},"start":"1970-01-01T00:00:00.000Z","name":"Town Hall","active":true,"end":"1970-01-01T00:00:00.000Z","townId":"PUTNEY"}
        ,{"address":{"zip":"","notes":"","city":"VT 05301","street":"Dummerston","street2":"","state":"VT"},"created":"1970-01-01T00:00:00.000Z","start":"1970-01-01T00:00:00.000Z","name":"Dummerston Common","coordinates":{"latitude":42.9215017,"longitude":-72.5838146},"active":true,"end":"1970-01-01T00:00:00.000Z","townId":"DUMMERSTON"}
        ,{"address":{"zip":"St Johnsbury","notes":"","city":"664 Memorial Dr","street":"9273","street2":"","state":"VT"},"created":"1970-01-01T00:00:00.000Z","start":"1970-01-01T00:00:00.000Z","coordinates":{"latitude":44.4420107,"longitude":-72.01402159999999},"name":"Saint J Subaru","active":true,"end":"1970-01-01T00:00:00.000Z","townId":"ST_JOHNSBURY"}
        ,{"address":{"zip":"05156","notes":"","city":"Springfield","street":"354 Route 131","street2":"","state":"VT"},"created":"1970-01-01T00:00:00.000Z","name":"Cavendish Transfer Station","coordinates":{"latitude":43.3880608,"longitude":-72.59896429999999},"start":"1970-01-01T00:00:00.000Z","active":true,"end":"1970-01-01T00:00:00.000Z","townId":"CAVENDISH"}
        ,{"address":{"zip":"05148","notes":"","city":"Londonderry","street":"7060 VT-100","street2":"","state":"VT"},"created":"1970-01-01T00:00:00.000Z","coordinates":{"latitude":43.241814,"longitude":-72.7977207},"name":"Londonderry Transfer Station","start":"1970-01-01T00:00:00.000Z","active":true,"end":"1970-01-01T00:00:00.000Z","townId":"LONDONDERRY"}
        ,{"address":{"zip":"05070","notes":"","city":"South Strafford","street":"233 Route 132","street2":"","state":"VT"},"created":"1970-01-01T00:00:00.000Z","start":"1970-01-01T00:00:00.000Z","coordinates":{"latitude":43.8350531,"longitude":-72.3638217},"name":"South Strafford Park and Ride","active":true,"end":"1970-01-01T00:00:00.000Z","townId":"STRAFFORD"}
        ,{"address":{"zip":"05822","notes":"","city":"Barton","street":"210 May Farm Rd","street2":"","state":"VT"},"created":"1970-01-01T00:00:00.000Z","start":"1970-01-01T00:00:00.000Z","coordinates":{"latitude":44.784336,"longitude":-72.20960199999999},"name":"Town Garage","active":true,"end":"1970-01-01T00:00:00.000Z","townId":"BARTON"}
        ,{"address":{"zip":"05487","notes":"","city":"Starksboro","street":"3904 VT-116","street2":"","state":"VT"},"created":"1970-01-01T00:00:00.000Z","start":"1970-01-01T00:00:00.000Z","name":"Town Garage","coordinates":{"latitude":44.2409595,"longitude":-73.0575535},"active":true,"end":"1970-01-01T00:00:00.000Z","townId":"STARKSBORO"}
        ,{"notes":"","address":{"zip":"05488","notes":"","city":"Swanton","street":"120 1st St","state":"VT","street2":""},"created":"Mon Apr 26 2021 17:50:56 GMT+0000 (Coordinated Universal Time)","name":"Swanton Village Municipal Parking Lot","coordinates":{"latitude":44.9200176,"longitude":-73.1129179},"active":true,"townId":"SWANTON","updated":"Mon Apr 26 2021 17:50:56 GMT+0000 (Coordinated Universal Time)"}
        ,{"notes":"Return full bags by 12pm or leave on roadside. ","address":{"zip":"05089","notes":"","city":"Windsor","street":"29 Union St","street2":"","state":"VT"},"created":"Mon Apr 19 2021 20:54:19 GMT+0000 (Coordinated Universal Time)","coordinates":{"latitude":43.4764878,"longitude":-72.3926173},"name":"Fire Station","active":true,"townId":"WINDSOR","updated":"Mon Apr 26 2021 20:27:02 GMT+0000 (Coordinated Universal Time)"}
        ,{"address":{"zip":"05701","notes":"","city":"Rutland","street":"128 US-7","state":"VT","street2":""},"created":"1970-01-01T00:00:00.000Z","name":"Kinney Subaru","start":"1970-01-01T00:00:00.000Z","coordinates":{"latitude":43.6069664,"longitude":-72.97213099999999},"active":true,"end":"1970-01-01T00:00:00.000Z","townId":"RUTLAND_CITY"}
        ,{"address":{"zip":"05148","notes":"","city":"Londonderry","street":"2242 N Main St","street2":"","state":"VT"},"created":"1970-01-01T00:00:00.000Z","coordinates":{"latitude":43.2273198,"longitude":-72.8095422},"name":"Mill Parking Area","start":"1970-01-01T00:00:00.000Z","active":true,"end":"1970-01-01T00:00:00.000Z","townId":"LONDONDERRY"}
        ,{"address":{"zip":"05441","notes":"","city":"Bakersfield","street":"43 VT Route 108","state":"VT","street2":""},"created":"1970-01-01T00:00:00.000Z","coordinates":{"latitude":44.7826691,"longitude":-72.8013684},"start":"1970-01-01T00:00:00.000Z","name":"Bakersfield Town Park","active":true,"end":"1970-01-01T00:00:00.000Z","townId":"BAKERSFIELD"}
        ,{"address":{"zip":"05038","notes":"","city":"Chelsea","street":"72 Washington Turnpike","street2":"","state":"VT"},"created":"1970-01-01T00:00:00.000Z","coordinates":{"latitude":44.016907,"longitude":-72.4420901},"start":"1970-01-01T00:00:00.000Z","name":"Transfer Station","active":true,"end":"1970-01-01T00:00:00.000Z","townId":"CHELSEA"}
        ,{"address":{"zip":"05489","notes":"","city":"Underhill","street":"75 New Rd.","street2":"","state":"VT"},"created":"1970-01-01T00:00:00.000Z","start":"1970-01-01T00:00:00.000Z","name":"Underhill Town Garage","coordinates":{"latitude":44.5195249,"longitude":-72.8858923},"active":true,"end":"1970-01-01T00:00:00.000Z","townId":"UNDERHILL"}
        ,{"address":{"zip":"05753","notes":"","city":"Middlebury","street":"298 Buttolph Dr","street2":"","state":"VT"},"created":"1970-01-01T00:00:00.000Z","start":"1970-01-01T00:00:00.000Z","coordinates":{"latitude":44.0129355,"longitude":-73.1611338},"name":"Middlebury Municipal Pool","active":true,"end":"1970-01-01T00:00:00.000Z","townId":"MIDDLEBURY"}
        ,{"address":{"zip":"05001","notes":"","city":"White River Junction","street":"429 Sykes Mountain Ave","street2":"","state":"VT"},"created":"1970-01-01T00:00:00.000Z","name":"Prime Subaru","start":"1970-01-01T00:00:00.000Z","coordinates":{"latitude":43.6435788,"longitude":-72.3309285},"active":true,"end":"1970-01-01T00:00:00.000Z","townId":"NORWICH"}
        ,{"address":{"zip":"05152","notes":"","city":"Peru","street":"402 Main St.","state":"VT","street2":""},"created":"1970-01-01T00:00:00.000Z","name":"Town Center Parking Lot","start":"1970-01-01T00:00:00.000Z","coordinates":{"latitude":43.229553,"longitude":-72.900955},"active":true,"end":"1970-01-01T00:00:00.000Z","townId":"PERU"}
        ,{"address":{"zip":"05701","notes":"","city":"Rutland","street":"14 Gleason Rd","street2":"","state":"VT"},"created":"1970-01-01T00:00:00.000Z","start":"1970-01-01T00:00:00.000Z","name":"Transfer Station","coordinates":{"latitude":43.620892,"longitude":-72.95135499999999},"active":true,"end":"1970-01-01T00:00:00.000Z","townId":"RUTLAND"}
        ,{"address":{"zip":"05462","notes":"","city":"Huntington","street":"4930 Main Rd.","state":"VT","street2":""},"created":"1970-01-01T00:00:00.000Z","coordinates":{"latitude":44.295249,"longitude":-72.966302},"start":"1970-01-01T00:00:00.000Z","name":"Huntington Town Garage","active":true,"end":"1970-01-01T00:00:00.000Z","townId":"HUNTINGTON"}
        ,{"address":{"zip":"05001","notes":"","city":"White River Junction","street":"70 Village Green","street2":"","state":"VT"},"notes":"Dumpsters: will be available at the following locations:\nHartford Town Hall: Wednesday, April 28th – Monday, May 3rd.\nQuechee Green: Wednesday, April 28th – Monday, May 3rd.\nWhite River Subaru: Friday, April 30th – Monday, May 3rd.\nDrop-off of Green-Up trash at the Hartford Solid Waste Facility will not be available this year.","created":"1970-01-01T00:00:00.000Z","coordinates":{"latitude":43.6481807,"longitude":-72.4266114},"start":"1970-01-01T00:00:00.000Z","name":"Quechee Green","active":true,"end":"1970-01-01T00:00:00.000Z","townId":"HARTFORD","updated":"Thu Apr 29 2021 18:12:54 GMT+0000 (Coordinated Universal Time)"}
        ,{"address":{"zip":"05454","notes":"","city":"Fairfax","street":"158 Morse Dr","state":"VT","street2":""},"created":"1970-01-01T00:00:00.000Z","name":"Northwest Vt. Solid Waste Management","coordinates":{"latitude":44.6973936,"longitude":-73.1032975},"start":"1970-01-01T00:00:00.000Z","active":true,"end":"1970-01-01T00:00:00.000Z","townId":"GEORGIA"}
        ,{"address":{"zip":"05076","notes":"","city":"Corinth","street":"2628 Goose Green Rd.","state":"VT","street2":""},"created":"1970-01-01T00:00:00.000Z","coordinates":{"latitude":44.0133509,"longitude":-72.260798},"start":"1970-01-01T00:00:00.000Z","name":"Casella Transfer Station","active":true,"end":"1970-01-01T00:00:00.000Z","townId":"CORINTH"}
        ,{"address":{"zip":"05450","notes":"","city":"Enosburg Falls","street":"4454 Water Tower Rd","street2":"","state":"VT"},"created":"1970-01-01T00:00:00.000Z","name":"Berkshire Town Garage","coordinates":{"latitude":44.971746,"longitude":-72.774079},"start":"1970-01-01T00:00:00.000Z","active":true,"end":"1970-01-01T00:00:00.000Z","townId":"BERKSHIRE"}
        ,{"address":{"zip":"05675","notes":"","city":"Washington","street":"51 Firehouse Lane","street2":"","state":"VT"},"created":"1970-01-01T00:00:00.000Z","coordinates":{"latitude":44.107406,"longitude":-72.43418799999999},"name":"Washington Fire Station","start":"1970-01-01T00:00:00.000Z","active":true,"end":"1970-01-01T00:00:00.000Z","townId":"WASHINGTON"}
        ,{"address":{"zip":"05821","notes":"","city":"Barnet","street":"163 Kid Row","street2":"","state":"VT"},"created":"1970-01-01T00:00:00.000Z","name":"Barnet School","coordinates":{"latitude":44.3074619,"longitude":-72.0814506},"start":"1970-01-01T00:00:00.000Z","active":true,"end":"1970-01-01T00:00:00.000Z","townId":"BARNET"}
        ,{"address":{"zip":"Morgan","notes":"","city":"2186 VT-111","street":"2042-","street2":"","state":"VT"},"created":"1970-01-01T00:00:00.000Z","coordinates":{"latitude":44.8601904,"longitude":-71.93914579999999},"name":"Transfer Station","start":"1970-01-01T00:00:00.000Z","active":true,"end":"1970-01-01T00:00:00.000Z","townId":"MORGAN"}
        ,{"address":{"zip":"05830","notes":"","city":"Derby Line","street":"26 School Rd","street2":"","state":"VT"},"created":"1970-01-01T00:00:00.000Z","start":"1970-01-01T00:00:00.000Z","name":"Holland School","coordinates":{"latitude":44.9730783,"longitude":-72.0133074},"active":true,"end":"1970-01-01T00:00:00.000Z","townId":"HOLLAND"}
        ,{"notes":"","address":{"zip":"05859","notes":"","city":"Jay","street":"1036 VT-242","street2":"","state":"VT"},"created":"Mon Apr 19 2021 20:04:33 GMT+0000 (Coordinated Universal Time)","name":"Jay Town Hall","coordinates":{"latitude":44.9472848,"longitude":-72.4411758},"active":true,"townId":"TROY","updated":"Mon Apr 19 2021 20:05:40 GMT+0000 (Coordinated Universal Time)"}
        ,{"address":{"zip":"05361","notes":"","city":"Whitingham","street":"4189 VT-100","street2":"","state":"VT"},"created":"1970-01-01T00:00:00.000Z","start":"1970-01-01T00:00:00.000Z","name":"Whitingham Transfer Station","coordinates":{"latitude":42.788624,"longitude":-72.838448},"active":true,"end":"1970-01-01T00:00:00.000Z","townId":"WHITINGHAM"}
        ,{"address":{"zip":"NH 03576","notes":"","city":"Colebrook","street":"15 Grant Rd.","state":"VT","street2":""},"created":"1970-01-01T00:00:00.000Z","start":"1970-01-01T00:00:00.000Z","name":"Jeffers Sand and Gravel Pit","coordinates":{"latitude":44.8623858,"longitude":-71.5418652},"active":true,"end":"1970-01-01T00:00:00.000Z","townId":"BLOOMFIELD"}
        ,{"address":{"zip":"05440","notes":"","city":"Alburgh","street":"260 Dump Road","street2":"","state":"VT"},"created":"1970-01-01T00:00:00.000Z","name":"Transfer Station","start":"1970-01-01T00:00:00.000Z","coordinates":{"latitude":44.9608232,"longitude":-73.2742027},"active":true,"end":"1970-01-01T00:00:00.000Z","townId":"ALBURGH"}
        ,{"address":{"zip":"05760","notes":"","city":"Orwell","street":"606 Main St.","street2":"","state":"VT"},"created":"1970-01-01T00:00:00.000Z","start":"1970-01-01T00:00:00.000Z","name":"Orwell Town Garage","coordinates":{"latitude":43.803636,"longitude":-73.291198},"active":true,"end":"1970-01-01T00:00:00.000Z","townId":"ORWELL"}
        ,{"address":{"zip":"","notes":"","city":"Cornwall VT 05753","street":"112 School Rd","state":"VT","street2":""},"created":"1970-01-01T00:00:00.000Z","start":"1970-01-01T00:00:00.000Z","name":"Bingham Memorial School","coordinates":{"latitude":43.963902,"longitude":-73.2063979},"active":true,"end":"1970-01-01T00:00:00.000Z","townId":"CORNWALL"}
        ,{"address":{"zip":"05656","notes":"","city":"Johhson","street":"53 Lower Main St E","state":"VT","street2":""},"created":"1970-01-01T00:00:00.000Z","start":"1970-01-01T00:00:00.000Z","coordinates":{"latitude":44.635295,"longitude":-72.677939},"name":"Johnson Town Green","active":true,"end":"1970-01-01T00:00:00.000Z","townId":"JOHNSON"}
        ,{"address":{"zip":"05602","notes":"","city":"Berlin","street":"108 Shed Rd","state":"VT","street2":""},"created":"1970-01-01T00:00:00.000Z","name":"Town Offices","coordinates":{"latitude":44.2118107,"longitude":-72.5800687},"start":"1970-01-01T00:00:00.000Z","active":true,"end":"1970-01-01T00:00:00.000Z","townId":"BERLIN"}
        ,{"address":{"zip":"05839","notes":"","city":"Glover","street":"1600 Dry Pond Rd","state":"VT","street2":""},"created":"1970-01-01T00:00:00.000Z","name":"Town Garage","coordinates":{"latitude":44.6651547,"longitude":-72.1939671},"start":"1970-01-01T00:00:00.000Z","active":true,"end":"1970-01-01T00:00:00.000Z","townId":"GLOVER"}
        ,{"address":{"zip":"05068","notes":"","city":"S. Royalton","street":"57 Park St.","street2":"","state":"VT"},"created":"1970-01-01T00:00:00.000Z","coordinates":{"latitude":43.8191791,"longitude":-72.5210189},"start":"1970-01-01T00:00:00.000Z","name":"South Royalton Green","active":true,"end":"1970-01-01T00:00:00.000Z","townId":"ROYALTON"}
        ,{"address":{"zip":"05454","notes":"","city":"Fairfax","street":"317 Fletcher Rd","state":"VT","street2":""},"notes":"Full bags CAN be left roadside for pickup on Town or State roads (not private roads). Alternatively, folks can leave bags at the Fairfax Highway Department.","created":"1970-01-01T00:00:00.000Z","name":"Fairfax Highway Department","start":"1970-01-01T00:00:00.000Z","coordinates":{"latitude":44.6703153,"longitude":-72.9840177},"active":true,"end":"1970-01-01T00:00:00.000Z","townId":"FAIRFAX","updated":"Tue Apr 27 2021 21:44:36 GMT+0000 (Coordinated Universal Time)"}
        ,{"address":{"zip":"05148","notes":"","city":"Landgrove","street":"88 Landgrove Road","state":"VT","street2":""},"created":"1970-01-01T00:00:00.000Z","coordinates":{"latitude":43.2662959,"longitude":-72.85734599999999},"name":"Town Hall","start":"1970-01-01T00:00:00.000Z","active":true,"end":"1970-01-01T00:00:00.000Z","townId":"LANDGROVE"}
        ,{"address":{"zip":"05149","notes":"","city":"Ludlow","street":"RR 100","street2":"","state":"VT"},"created":"1970-01-01T00:00:00.000Z","coordinates":{"latitude":43.3958564,"longitude":-72.70052559999999},"start":"1970-01-01T00:00:00.000Z","name":"Transfer Station","active":true,"end":"1970-01-01T00:00:00.000Z","townId":"LUDLOW"}
        ,{"address":{"zip":"","notes":"","city":"Vermont 05747","street":"82 Post Office Hill Road\nGranville","state":"VT","street2":""},"created":"1970-01-01T00:00:00.000Z","name":"Moss Glen Grange Hall","start":"1970-01-01T00:00:00.000Z","coordinates":{"latitude":43.9849061,"longitude":-72.8464085},"active":true,"end":"1970-01-01T00:00:00.000Z","townId":"GRANVILLE"}
        ,{"address":{"zip":"05494","notes":"","city":"Westford","street":"1713 VT Route 128","state":"VT","street2":""},"created":"1970-01-01T00:00:00.000Z","coordinates":{"latitude":44.612086,"longitude":-73.011004},"start":"1970-01-01T00:00:00.000Z","name":"Westford Town Offices","active":true,"end":"1970-01-01T00:00:00.000Z","townId":"WESTFORD"}
        ,{"address":{"zip":"05677","notes":"","city":"Waterbury","street":"1707 Guptil Rd.","street2":"","state":"VT"},"created":"1970-01-01T00:00:00.000Z","name":"Waterbury Town Garage","coordinates":{"latitude":44.37241,"longitude":-72.71908599999999},"start":"1970-01-01T00:00:00.000Z","active":true,"end":"1970-01-01T00:00:00.000Z","townId":"WATERBURY"}
        ,{"address":{"zip":"05761","notes":"","city":"Pawlet","street":"313 Danby Pawlet Rd","state":"VT","street2":""},"created":"1970-01-01T00:00:00.000Z","name":"Town Garage","coordinates":{"latitude":43.353687,"longitude":-73.1498937},"start":"1970-01-01T00:00:00.000Z","active":true,"end":"1970-01-01T00:00:00.000Z","townId":"PAWLET"}
        ,{"address":{"zip":"05826","notes":"","city":"Craftsbury","street":"46 Town Garage Rd.","street2":"","state":"VT"},"created":"1970-01-01T00:00:00.000Z","coordinates":{"latitude":44.6371277,"longitude":-72.3713927},"start":"1970-01-01T00:00:00.000Z","name":"Craftsbury Town Garage","active":true,"end":"1970-01-01T00:00:00.000Z","townId":"CRAFTSBURY"}
        ,{"address":{"zip":"05459","notes":"","city":"Highgate Center","street":"2996 VT-78","street2":"","state":"VT"},"created":"1970-01-01T00:00:00.000Z","name":"Town Clerk\u0027s Office","coordinates":{"latitude":44.9379157,"longitude":-73.04687609999999},"start":"1970-01-01T00:00:00.000Z","active":true,"end":"1970-01-01T00:00:00.000Z","townId":"HIGHGATE"}
        ,{"address":{"zip":"05860","notes":"","city":"Brownington","street":"622 Schoolhouse Rd","state":"VT","street2":""},"created":"1970-01-01T00:00:00.000Z","coordinates":{"latitude":44.81885399999999,"longitude":-72.135358},"start":"1970-01-01T00:00:00.000Z","name":"Town Clerk\u0027s Office","active":true,"end":"1970-01-01T00:00:00.000Z","townId":"BROWNINGTON"}
        ]}